{
  "tournament": "FIFA World Cup 2026",
  "hosts": ["USA", "Canada", "Mexico"],
  "start_date": "2026-06-11",
  "final_date": "2026-07-19",
  "venues": [
    {"name": "MetLife Stadium", "city": "New York/New Jersey", "country": "USA", "lat": 40.8128, "lon": -74.0742, "capacity": 82500},
    {"name": "AT&T Stadium", "city": "Dallas", "country": "USA", "lat": 32.7473, "lon": -97.0945, "capacity": 80000},
    {"name": "SoFi Stadium", "city": "Los Angeles", "country": "USA", "lat": 33.9534, "lon": -118.3392, "capacity": 70240},
    {"name": "Rose Bowl", "city": "Pasadena", "country": "USA", "lat": 34.1613, "lon": -118.1676, "capacity": 92542},
    {"name": "Levi's Stadium", "city": "San Francisco", "country": "USA", "lat": 37.4033, "lon": -121.9694, "capacity": 68500},
    {"name": "BC Place", "city": "Vancouver", "country": "Canada", "lat": 49.2768, "lon": -123.1116, "capacity": 54500},
    {"name": "Estadio Azteca", "city": "Mexico City", "country": "Mexico", "lat": 19.3029, "lon": -99.1505, "capacity": 87523},
    {"name": "Estadio Akron", "city": "Guadalajara", "country": "Mexico", "lat": 20.6893, "lon": -103.4673, "capacity": 49850},
    {"name": "Hard Rock Stadium", "city": "Miami", "country": "USA", "lat": 25.9580, "lon": -80.2389, "capacity": 65326},
    {"name": "NRG Stadium", "city": "Houston", "country": "USA", "lat": 29.6847, "lon": -95.4107, "capacity": 72220},
    {"name": "Q2 Stadium", "city": "Austin", "country": "USA", "lat": 30.3877, "lon": -97.7191, "capacity": 20738},
    {"name": "Gillette Stadium", "city": "Boston", "country": "USA", "lat": 42.0909, "lon": -71.2643, "capacity": 65878},
    {"name": "Arrowhead Stadium", "city": "Kansas City", "country": "USA", "lat": 39.0489, "lon": -94.4839, "capacity": 76416},
    {"name": "Lumen Field", "city": "Seattle", "country": "USA", "lat": 47.5952, "lon": -122.3316, "capacity": 72000},
    {"name": "Empower Field", "city": "Denver", "country": "USA", "lat": 39.7439, "lon": -105.0201, "capacity": 76125},
    {"name": "Allegiant Stadium", "city": "Las Vegas", "country": "USA", "lat": 36.0909, "lon": -115.1833, "capacity": 65000},
    {"name": "Lincoln Financial Field", "city": "Philadelphia", "country": "USA", "lat": 39.9008, "lon": -75.1675, "capacity": 69176},
    {"name": "BMO Field", "city": "Toronto", "country": "Canada", "lat": 43.6333, "lon": -79.4186, "capacity": 30000}
  ],
  "phases": ["Groupe", "Huitièmes de finale", "Quarts de finale", "Demi-finales", "Finale"]
}
